[
  {
    "nombre": "Turismo Vivencial Cochas Chico",
    "ciudad": "Huancayo",
    "direccion": "Anexo Cochas Chico S/N",
    "latitud": -11.9833,
    "longitud": -75.2167,
    "habitaciones": [
      {"tipo": "Habitación en Casa de Artesano (Mate Burilado)", "disponibles": 3, "precio_noche_soles": 45.0},
      {"tipo": "Habitación Doble Compartida", "disponibles": 2, "precio_noche_soles": 70.0}
    ]
  },
  {
    "nombre": "Casa de Familia San Jerónimo",
    "ciudad": "Huancayo",
    "direccion": "Plaza Principal San Jerónimo de Tunan",
    "latitud": -11.9542,
    "longitud": -75.2811,
    "habitaciones": [
      {"tipo": "Habitación Simple (Incluye Taller de Platería)", "disponibles": 4, "precio_noche_soles": 60.0}
    ]
  },
  {
    "nombre": "Hotel Presidente Huancayo",
    "ciudad": "Huancayo",
    "direccion": "Calle Real 1138",
    "latitud": -12.0671,
    "longitud": -75.2102,
    "habitaciones": [
      {"tipo": "Suite Ejecutiva", "disponibles": 5, "precio_noche_soles": 150.0},
      {"tipo": "Habitación Matrimonial", "disponibles": 10, "precio_noche_soles": 120.0}
    ]
  },
  {
    "nombre": "Hostal Wanka Inn",
    "ciudad": "Huancayo",
    "direccion": "Jr. Ancash 450",
    "latitud": -12.0655,
    "longitud": -75.2055,
    "habitaciones": [
      {"tipo": "Habitación Simple", "disponibles": 8, "precio_noche_soles": 50.0},
      {"tipo": "Habitación Doble", "disponibles": 6, "precio_noche_soles": 80.0}
    ]
  },
  {
    "nombre": "Eco Lodge Laguna de Paca",
    "ciudad": "Jauja (Cerca a Huancayo)",
    "direccion": "Ribera de la Laguna S/N",
    "latitud": -11.7333,
    "longitud": -75.5000,
    "habitaciones": [
      {"tipo": "Bungalow Vista al Lago", "disponibles": 3, "precio_noche_soles": 180.0}
    ]
  }
]